{
"type": "FeatureCollection",
"name": "bcps",
"crs": { "type": "name", "properties": { "name": "urn:ogc:def:crs:OGC:1.3:CRS84" } },
"xy_coordinate_resolution": 1e-05,
"features": [
{ "type": "Feature", "properties": { "fid": 1, "name": "Agarak", "status": "open", "description": "" }, "geometry": { "type": "Point", "coordinates": [ 46.29363, 38.89547 ] } },
{ "type": "Feature", "properties": { "fid": 2, "name": "Gürbulak", "status": "open", "description": "" }, "geometry": { "type": "Point", "coordinates": [ 44.40572, 39.40576 ] } },
{ "type": "Feature", "properties": { "fid": 3, "name": "Kapiköy", "status": "open", "description": "" }, "geometry": { "type": "Point", "coordinates": [ 44.29605, 38.65118 ] } },
{ "type": "Feature", "properties": { "fid": 4, "name": "Esendere", "status": "open", "description": "" }, "geometry": { "type": "Point", "coordinates": [ 44.62506, 37.67806 ] } },
{ "type": "Feature", "properties": { "fid": 5, "name": "Haji Omran", "status": "open", "description": "" }, "geometry": { "type": "Point", "coordinates": [ 45.05591, 36.48445 ] } },
{ "type": "Feature", "properties": { "fid": 6, "name": "Bashmakh", "status": "open", "description": "" }, "geometry": { "type": "Point", "coordinates": [ 46.00378, 35.47656 ] } },
{ "type": "Feature", "properties": { "fid": 7, "name": "Parwezkhan", "status": "open", "description": "" }, "geometry": { "type": "Point", "coordinates": [ 45.73744, 34.8361 ] } },
{ "type": "Feature", "properties": { "fid": 8, "name": "Munthriya", "status": "open", "description": "" }, "geometry": { "type": "Point", "coordinates": [ 45.4476, 34.44295 ] } },
{ "type": "Feature", "properties": { "fid": 9, "name": "Mandeli", "status": "open", "description": "" }, "geometry": { "type": "Point", "coordinates": [ 45.5416, 33.89852 ] } },
{ "type": "Feature", "properties": { "fid": 10, "name": "Zirbatiya", "status": "open", "description": "" }, "geometry": { "type": "Point", "coordinates": [ 46.05284, 33.1104 ] } },
{ "type": "Feature", "properties": { "fid": 11, "name": "Al Sheeb", "status": "open", "description": "" }, "geometry": { "type": "Point", "coordinates": [ 47.83743, 31.81743 ] } },
{ "type": "Feature", "properties": { "fid": 12, "name": "Shalamchah", "status": "open", "description": "" }, "geometry": { "type": "Point", "coordinates": [ 48.26957, 30.33012 ] } },
{ "type": "Feature", "properties": { "fid": 13, "name": "Gudri-Olum", "status": "open", "description": "" }, "geometry": { "type": "Point", "coordinates": [ 54.59166, 37.44942 ] } },
{ "type": "Feature", "properties": { "fid": 14, "name": "Bajgiran", "status": "open", "description": "" }, "geometry": { "type": "Point", "coordinates": [ 58.40091, 37.63977 ] } },
{ "type": "Feature", "properties": { "fid": 15, "name": "Artyk", "status": "open", "description": "" }, "geometry": { "type": "Point", "coordinates": [ 59.30521, 37.51292 ] } },
{ "type": "Feature", "properties": { "fid": 16, "name": "Sarakhs", "status": "open", "description": "" }, "geometry": { "type": "Point", "coordinates": [ 61.16182, 36.3616 ] } },
{ "type": "Feature", "properties": { "fid": 17, "name": "Mirjaveh-Taftan", "status": "partially open", "description": "nationals can only cross into their home country" }, "geometry": { "type": "Point", "coordinates": [ 61.42191, 29.13841 ] } },
{ "type": "Feature", "properties": { "fid": 18, "name": "Rimdan", "status": "partially open", "description": "nationals can only cross into their home country" }, "geometry": { "type": "Point", "coordinates": [ 61.66999, 25.47731 ] } },
{ "type": "Feature", "properties": { "fid": 19, "name": "Chaman", "status": "partially open", "description": "Open for Afghan returnees and deportees" }, "geometry": { "type": "Point", "coordinates": [ 66.38354, 30.91548 ] } },
{ "type": "Feature", "properties": { "fid": 20, "name": "Dogharoun", "status": "open", "description": "" }, "geometry": { "type": "Point", "coordinates": [ 60.99777, 34.6385 ] } },
{ "type": "Feature", "properties": { "fid": 21, "name": "Abu Nasr e Farahi", "status": "open", "description": "" }, "geometry": { "type": "Point", "coordinates": [ 60.87373, 32.20422 ] } },
{ "type": "Feature", "properties": { "fid": 22, "name": "Milak", "status": "open", "description": "" }, "geometry": { "type": "Point", "coordinates": [ 61.82604, 31.04583 ] } },
{ "type": "Feature", "properties": { "fid": 23, "name": "Bahramcha", "status": "partially open", "description": "Open for Afghan returnees and deportees" }, "geometry": { "type": "Point", "coordinates": [ 64.14881, 29.40193 ] } },
{ "type": "Feature", "properties": { "fid": 24, "name": "Badini", "status": "closed", "description": "" }, "geometry": { "type": "Point", "coordinates": [ 68.05009, 31.69324 ] } },
{ "type": "Feature", "properties": { "fid": 25, "name": "Ghulam Khan", "status": "closed", "description": "" }, "geometry": { "type": "Point", "coordinates": [ 69.77066, 33.11878 ] } },
{ "type": "Feature", "properties": { "fid": 26, "name": "Torkham", "status": "closed", "description": "" }, "geometry": { "type": "Point", "coordinates": [ 70.783, 33.96586 ] } },
{ "type": "Feature", "properties": { "fid": 27, "name": "Arandu", "status": "closed", "description": "" }, "geometry": { "type": "Point", "coordinates": [ 71.543938, 35.309965 ] } },
{ "type": "Feature", "properties": { "fid": 28, "name": "Astara", "status": "partially open", "description": "Open only for pre-cleared exceptions (e.g. third country nationals\/evacuees) and commercial traffic" }, "geometry": { "type": "Point", "coordinates": [ 48.87581, 38.44065 ] } },
{ "type": "Feature", "properties": { "fid": 29, "name": "Bileh Savar", "status": "closed", "description": null }, "geometry": { "type": "Point", "coordinates": [ 48.36146, 39.38959 ] } }
]
}
